header:
  stamp:
    sec: 1772667079
    nanosec: 245628392
  frame_id: map
pose:
  position:
    x: 0.08271638303995132
    y: -0.11053808033466339
    z: 0.09527558088302612
  orientation:
    x: -0.0024318236447633075
    y: 0.002978489261055963
    z: -0.8695009908693874
    w: -0.4939162624477111
---
header:
  stamp:
    sec: 1772667079
    nanosec: 277842259
  frame_id: map
pose:
  position:
    x: 0.08263013511896133
    y: -0.11056285351514816
    z: 0.09524717926979065
  orientation:
    x: -0.002421754890247054
    y: 0.002981596541578332
    z: -0.8691919912495296
    w: -0.4944599357200773
---
header:
  stamp:
    sec: 1772667079
    nanosec: 311062913
  frame_id: map
pose:
  position:
    x: 0.08242402225732803
    y: -0.11061586439609528
    z: 0.09524349123239517
  orientation:
    x: -0.002414228817235153
    y: 0.0029795187307580673
    z: -0.8690347624311598
    w: -0.49473627153233907
---
header:
  stamp:
    sec: 1772667079
    nanosec: 344619250
  frame_id: map
pose:
  position:
    x: 0.08229804039001465
    y: -0.11064961552619934
    z: 0.09523610770702362
  orientation:
    x: -0.0024013772800028383
    y: 0.0029822069505986842
    z: -0.8687606393284449
    w: -0.49521741995493934
---
header:
  stamp:
    sec: 1772667079
    nanosec: 377978605
  frame_id: map
pose:
  position:
    x: 0.08219587802886963
    y: -0.11067847907543182
    z: 0.09522487968206406
  orientation:
    x: -0.002392059163328105
    y: 0.0029845000437345123
    z: -0.8684046248990734
    w: -0.49584157263453715
---
header:
  stamp:
    sec: 1772667079
    nanosec: 410705918
  frame_id: map
pose:
  position:
    x: 0.08202822506427765
    y: -0.11072966456413269
    z: 0.09521619230508804
  orientation:
    x: -0.0023887300150450936
    y: 0.0029898459845732204
    z: -0.868284148132605
    w: -0.4960524965379099
---
header:
  stamp:
    sec: 1772667079
    nanosec: 443425626
  frame_id: map
pose:
  position:
    x: 0.08192967623472214
    y: -0.11076638847589493
    z: 0.09520865976810455
  orientation:
    x: -0.002377811182466613
    y: 0.0029876739401497663
    z: -0.8679526631690668
    w: -0.4966323107328744
---
header:
  stamp:
    sec: 1772667079
    nanosec: 478239692
  frame_id: map
pose:
  position:
    x: 0.08185725659132004
    y: -0.11079885810613632
    z: 0.09519634395837784
  orientation:
    x: -0.0023634303608301515
    y: 0.002996827564754115
    z: -0.8676937129318159
    w: -0.49708471500479023
---
header:
  stamp:
    sec: 1772667079
    nanosec: 510704918
  frame_id: map
pose:
  position:
    x: 0.08168404549360275
    y: -0.11085627973079681
    z: 0.09519314765930176
  orientation:
    x: -0.0023587849055527778
    y: 0.0030000489175329758
    z: -0.8676048673751549
    w: -0.4972397311136133
---
header:
  stamp:
    sec: 1772667079
    nanosec: 544529176
  frame_id: map
pose:
  position:
    x: 0.0815717801451683
    y: -0.1109008938074112
    z: 0.09518171101808548
  orientation:
    x: -0.0023433009395473817
    y: 0.0030075332141276515
    z: -0.8673884854549
    w: -0.4976171982888769
---
header:
  stamp:
    sec: 1772667079
    nanosec: 578175202
  frame_id: map
pose:
  position:
    x: 0.08148807287216187
    y: -0.1109437495470047
    z: 0.09516070038080215
  orientation:
    x: -0.002333544561502586
    y: 0.0030160963095239826
    z: -0.867189994871838
    w: -0.497963034254333
---
header:
  stamp:
    sec: 1772667079
    nanosec: 613235626
  frame_id: map
pose:
  position:
    x: 0.08134594559669495
    y: -0.11100655049085617
    z: 0.0951467901468277
  orientation:
    x: -0.002330422360831208
    y: 0.0030154526234264616
    z: -0.8671318743677414
    w: -0.4980639759565166
---
header:
  stamp:
    sec: 1772667079
    nanosec: 643858477
  frame_id: map
pose:
  position:
    x: 0.08126455545425415
    y: -0.11104818433523178
    z: 0.09512903541326523
  orientation:
    x: -0.002324274436258872
    y: 0.003019191592188597
    z: -0.8669828220379827
    w: -0.49832362161676796
---
header:
  stamp:
    sec: 1772667079
    nanosec: 677851957
  frame_id: map
pose:
  position:
    x: 0.08121535181999207
    y: -0.11108739674091339
    z: 0.09510387480258942
  orientation:
    x: -0.002315580496300611
    y: 0.003022220073744682
    z: -0.8668913001564413
    w: -0.49848283133701793
---
header:
  stamp:
    sec: 1772667079
    nanosec: 710759377
  frame_id: map
pose:
  position:
    x: 0.08112037181854248
    y: -0.11114484816789627
    z: 0.09508174657821655
  orientation:
    x: -0.002310105027988989
    y: 0.003028072229514871
    z: -0.8668479099758993
    w: -0.49855833741612515
---
header:
  stamp:
    sec: 1772667079
    nanosec: 744528791
  frame_id: map
pose:
  position:
    x: 0.08104781806468964
    y: -0.11118916422128677
    z: 0.0950705036520958
  orientation:
    x: -0.0023012706945734324
    y: 0.003027884503171064
    z: -0.8667816129831917
    w: -0.4986734404594084
---
header:
  stamp:
    sec: 1772667079
    nanosec: 778283516
  frame_id: map
pose:
  position:
    x: 0.0809859186410904
    y: -0.1112336814403534
    z: 0.09505259990692139
  orientation:
    x: -0.0022902454247388493
    y: 0.0030380875801874307
    z: -0.8667398243828931
    w: -0.4987459962591199
---
header:
  stamp:
    sec: 1772667079
    nanosec: 810730148
  frame_id: map
pose:
  position:
    x: 0.08088253438472748
    y: -0.11129898577928543
    z: 0.09502791613340378
  orientation:
    x: -0.0022855115187022474
    y: 0.00304269175295596
    z: -0.866721996265973
    w: -0.4987770584864724
---
header:
  stamp:
    sec: 1772667079
    nanosec: 846614961
  frame_id: map
pose:
  position:
    x: 0.0808321088552475
    y: -0.11133994162082672
    z: 0.09499748796224594
  orientation:
    x: -0.0022827127457023524
    y: 0.003051390426202872
    z: -0.8666943900801983
    w: -0.4988251480406234
---
header:
  stamp:
    sec: 1772667079
    nanosec: 878190796
  frame_id: map
pose:
  position:
    x: 0.08080293983221054
    y: -0.11137482523918152
    z: 0.0949678122997284
  orientation:
    x: -0.00228277670683769
    y: 0.0030603505004604212
    z: -0.8666908708183477
    w: -0.4988311961133847
---
header:
  stamp:
    sec: 1772667079
    nanosec: 913394973
  frame_id: map
pose:
  position:
    x: 0.0807519406080246
    y: -0.11141961067914963
    z: 0.09494000673294067
  orientation:
    x: -0.0022772213488454433
    y: 0.003064702039092076
    z: -0.8666886159619523
    w: -0.49883496825632645
---
header:
  stamp:
    sec: 1772667079
    nanosec: 944621845
  frame_id: map
pose:
  position:
    x: 0.0806804969906807
    y: -0.11145734786987305
    z: 0.09493225067853928
  orientation:
    x: -0.0022762578982302648
    y: 0.0030705449752391526
    z: -0.8666929149405004
    w: -0.4988275504109885
---
header:
  stamp:
    sec: 1772667079
    nanosec: 978316569
  frame_id: map
pose:
  position:
    x: 0.08063624054193497
    y: -0.11148172616958618
    z: 0.09491405636072159
  orientation:
    x: -0.0022673157281515263
    y: 0.003069362023507657
    z: -0.8666998691705048
    w: -0.4988153699717689
---
header:
  stamp:
    sec: 1772667080
    nanosec: 10185587
  frame_id: map
pose:
  position:
    x: 0.08060406148433685
    y: -0.11150287836790085
    z: 0.09488159418106079
  orientation:
    x: -0.0022694736138680585
    y: 0.0030715498729993024
    z: -0.8667039152679619
    w: -0.4988084578886131
---
header:
  stamp:
    sec: 1772667080
    nanosec: 44712461
  frame_id: map
pose:
  position:
    x: 0.08060676604509354
    y: -0.11151844263076782
    z: 0.0948527455329895
  orientation:
    x: -0.002264827993954558
    y: 0.0030699659911395407
    z: -0.8667183927104253
    w: -0.49878319085293077
---
header:
  stamp:
    sec: 1772667080
    nanosec: 78396873
  frame_id: map
pose:
  position:
    x: 0.0806347206234932
    y: -0.1115303635597229
    z: 0.09482134133577347
  orientation:
    x: -0.002253121048236149
    y: 0.0030704618751540517
    z: -0.866735862579133
    w: -0.4987528240485787
---
header:
  stamp:
    sec: 1772667080
    nanosec: 112433999
  frame_id: map
pose:
  position:
    x: 0.0806322917342186
    y: -0.11154396831989288
    z: 0.09479580074548721
  orientation:
    x: -0.002245918341157183
    y: 0.0030684469347547834
    z: -0.8667431750573498
    w: -0.49874036965484375
---
header:
  stamp:
    sec: 1772667080
    nanosec: 144630938
  frame_id: map
pose:
  position:
    x: 0.08060281723737717
    y: -0.11155674606561661
    z: 0.09478257596492767
  orientation:
    x: -0.002248775189550876
    y: 0.003069656927970138
    z: -0.8667606449260574
    w: -0.4987099185567946
---
header:
  stamp:
    sec: 1772667080
    nanosec: 177849301
  frame_id: map
pose:
  position:
    x: 0.0805974155664444
    y: -0.11156747490167618
    z: 0.09476765990257263
  orientation:
    x: -0.0022404681444910548
    y: 0.0030756554452572257
    z: -0.8667743426518236
    w: -0.49868610558738596
---
header:
  stamp:
    sec: 1772667080
    nanosec: 210658542
  frame_id: map
pose:
  position:
    x: 0.080548956990242
    y: -0.1115882396697998
    z: 0.0947660282254219
  orientation:
    x: -0.002238430525465293
    y: 0.0030717329072134903
    z: -0.866781886937707
    w: -0.4986729979174991
---
header:
  stamp:
    sec: 1772667080
    nanosec: 244560041
  frame_id: map
pose:
  position:
    x: 0.08051887899637222
    y: -0.11160395294427872
    z: 0.09476011246442795
  orientation:
    x: -0.0022330272089363264
    y: 0.003082332798454948
    z: -0.8664593160326288
    w: -0.4992332770481786
---
header:
  stamp:
    sec: 1772667080
    nanosec: 278237838
  frame_id: map
pose:
  position:
    x: 0.08045686781406403
    y: -0.11162780970335007
    z: 0.09476664662361145
  orientation:
    x: -0.0022241763295900063
    y: 0.0030818488094006124
    z: -0.8661419924101904
    w: -0.4997836727428823
---
header:
  stamp:
    sec: 1772667080
    nanosec: 310717543
  frame_id: map
pose:
  position:
    x: 0.08034214377403259
    y: -0.11166660487651825
    z: 0.09478708356618881
  orientation:
    x: -0.0022190196379792792
    y: 0.003085088477948602
    z: -0.8659435861208252
    w: -0.5001272327785189
---
header:
  stamp:
    sec: 1772667080
    nanosec: 343408084
  frame_id: map
pose:
  position:
    x: 0.08023837953805923
    y: -0.1116989329457283
    z: 0.09480234980583191
  orientation:
    x: -0.0022036943194617595
    y: 0.0030918912427160637
    z: -0.8656219635198387
    w: -0.5006839505004993
---
header:
  stamp:
    sec: 1772667080
    nanosec: 377846519
  frame_id: map
pose:
  position:
    x: 0.08014319837093353
    y: -0.11172939091920853
    z: 0.09481363743543625
  orientation:
    x: -0.0021972442464373546
    y: 0.003096685076302892
    z: -0.8653347959675096
    w: -0.5011799978340483
---
header:
  stamp:
    sec: 1772667080
    nanosec: 410803940
  frame_id: map
pose:
  position:
    x: 0.08000526577234268
    y: -0.1117718443274498
    z: 0.09482630342245102
  orientation:
    x: -0.0021939898017969673
    y: 0.0030933853567275808
    z: -0.865172066985409
    w: -0.5014608222856763
---
header:
  stamp:
    sec: 1772667080
    nanosec: 444567155
  frame_id: map
pose:
  position:
    x: 0.07991106063127518
    y: -0.11180845648050308
    z: 0.09483430534601212
  orientation:
    x: -0.0021800705581220543
    y: 0.0030997827050323157
    z: -0.8648700637424044
    w: -0.5019814833787558
---
header:
  stamp:
    sec: 1772667080
    nanosec: 478703658
  frame_id: map
pose:
  position:
    x: 0.0798192024230957
    y: -0.11184384673833847
    z: 0.09484466165304184
  orientation:
    x: -0.002171419505874876
    y: 0.003098879922829935
    z: -0.8645686927021271
    w: -0.502500416451046
---
header:
  stamp:
    sec: 1772667080
    nanosec: 512674220
  frame_id: map
pose:
  position:
    x: 0.07965952903032303
    y: -0.11189283430576324
    z: 0.09486652165651321
  orientation:
    x: -0.00216905043316644
    y: 0.0031040369437129157
    z: -0.8644786248868593
    w: -0.5026555590004147
---
header:
  stamp:
    sec: 1772667080
    nanosec: 546956142
  frame_id: map
pose:
  position:
    x: 0.0795455202460289
    y: -0.11192270368337631
    z: 0.09487880766391754
  orientation:
    x: -0.002161053027502466
    y: 0.0031183333275957444
    z: -0.8642283990472501
    w: -0.5030854147083773
---
header:
  stamp:
    sec: 1772667080
    nanosec: 577980302
  frame_id: map
pose:
  position:
    x: 0.07942423969507217
    y: -0.11194557696580887
    z: 0.09489111602306366
  orientation:
    x: -0.0021576281844706384
    y: 0.0031279205008610204
    z: -0.8640460507071678
    w: -0.5033985025725405
---
header:
  stamp:
    sec: 1772667080
    nanosec: 612926453
  frame_id: map
pose:
  position:
    x: 0.07928767800331116
    y: -0.11196451634168625
    z: 0.09490083158016205
  orientation:
    x: -0.0021553499085862405
    y: 0.0031291269955586766
    z: -0.8639852960250394
    w: -0.5035027528023321
---
header:
  stamp:
    sec: 1772667080
    nanosec: 644339630
  frame_id: map
pose:
  position:
    x: 0.0792095810174942
    y: -0.111975759267807
    z: 0.09490218013525009
  orientation:
    x: -0.002148765821754461
    y: 0.003137733143302217
    z: -0.8638333566361577
    w: -0.5037634310603721
---
header:
  stamp:
    sec: 1772667080
    nanosec: 677835080
  frame_id: map
pose:
  position:
    x: 0.07911122590303421
    y: -0.11199244111776352
    z: 0.09491556882858276
  orientation:
    x: -0.002145674119925609
    y: 0.003141406339931618
    z: -0.8637384208598867
    w: -0.5039261389690484
---
header:
  stamp:
    sec: 1772667080
    nanosec: 710745990
  frame_id: map
pose:
  position:
    x: 0.07895627617835999
    y: -0.11202176660299301
    z: 0.09495135396718979
  orientation:
    x: -0.0021434586115646284
    y: 0.003146952766413975
    z: -0.8636927547495253
    w: -0.5040044267401574
---
header:
  stamp:
    sec: 1772667080
    nanosec: 744567592
  frame_id: map
pose:
  position:
    x: 0.0788622498512268
    y: -0.11204492300748825
    z: 0.09496878832578659
  orientation:
    x: -0.002132624978181868
    y: 0.003150051465278224
    z: -0.8636246875891802
    w: -0.504120878482593
---
header:
  stamp:
    sec: 1772667080
    nanosec: 777878247
  frame_id: map
pose:
  position:
    x: 0.07875321060419083
    y: -0.11207319051027298
    z: 0.09498459100723267
  orientation:
    x: -0.002122410006205326
    y: 0.0031598538591205154
    z: -0.8635701284937828
    w: -0.5042144655597114
---
header:
  stamp:
    sec: 1772667080
    nanosec: 811010775
  frame_id: map
pose:
  position:
    x: 0.07861815392971039
    y: -0.11211225390434265
    z: 0.09500342607498169
  orientation:
    x: -0.0021158807432038363
    y: 0.003160096656248802
    z: -0.8635575055126539
    w: -0.5042360236727248
---
header:
  stamp:
    sec: 1772667080
    nanosec: 844648207
  frame_id: map
pose:
  position:
    x: 0.07852502167224884
    y: -0.11214659363031387
    z: 0.09502050280570984
  orientation:
    x: -0.002109724916097404
    y: 0.00316936476469996
    z: -0.8635328074594265
    w: -0.5042785076960238
---
header:
  stamp:
    sec: 1772667080
    nanosec: 878206471
  frame_id: map
pose:
  position:
    x: 0.07845750451087952
    y: -0.11217975616455078
    z: 0.09503237158060074
  orientation:
    x: -0.0021039849186887316
    y: 0.0031786138165194188
    z: -0.863517929621902
    w: -0.5043036693645847
---
header:
  stamp:
    sec: 1772667080
    nanosec: 910045124
  frame_id: map
pose:
  position:
    x: 0.0783553272485733
    y: -0.11222688853740692
    z: 0.0950588807463646
  orientation:
    x: -0.002106076703000275
    y: 0.003185233258959471
    z: -0.8635194469084484
    w: -0.504301140553674
---
header:
  stamp:
    sec: 1772667080
    nanosec: 944534236
  frame_id: map
pose:
  position:
    x: 0.07830319553613663
    y: -0.11226145178079605
    z: 0.0950736403465271
  orientation:
    x: -0.002102171739863096
    y: 0.0031970279145745366
    z: -0.8635221443067532
    w: -0.5042965044003379
---
header:
  stamp:
    sec: 1772667080
    nanosec: 977867705
  frame_id: map
pose:
  position:
    x: 0.07821449637413025
    y: -0.11230617761611938
    z: 0.0951031744480133
  orientation:
    x: -0.0020932777670105355
    y: 0.0032050964018863408
    z: -0.8635349780221248
    w: -0.5042744826719909
---
header:
  stamp:
    sec: 1772667081
    nanosec: 13057507
  frame_id: map
pose:
  position:
    x: 0.07811686396598816
    y: -0.1123567745089531
    z: 0.09513355046510696
  orientation:
    x: -0.0020883113124445522
    y: 0.0032115761917316686
    z: -0.86354515648604
    w: -0.5042569706564346
---
header:
  stamp:
    sec: 1772667081
    nanosec: 44570893
  frame_id: map
pose:
  position:
    x: 0.0780303105711937
    y: -0.11239644140005112
    z: 0.09515930712223053
  orientation:
    x: -0.0020898610734669944
    y: 0.0032136382180632576
    z: -0.8635601818375342
    w: -0.5042311557117217
---
header:
  stamp:
    sec: 1772667081
    nanosec: 78410776
  frame_id: map
pose:
  position:
    x: 0.07797794044017792
    y: -0.1124277412891388
    z: 0.09517456591129303
  orientation:
    x: -0.00208911000345564
    y: 0.0032207989017708077
    z: -0.8635763451539382
    w: -0.5042036127462198
---
header:
  stamp:
    sec: 1772667081
    nanosec: 110200417
  frame_id: map
pose:
  position:
    x: 0.07789313793182373
    y: -0.1124674528837204
    z: 0.09519883990287781
  orientation:
    x: -0.002083526451526645
    y: 0.0032233165997428894
    z: -0.8635853013592467
    w: -0.5041882502199376
---
header:
  stamp:
    sec: 1772667081
    nanosec: 144583590
  frame_id: map
pose:
  position:
    x: 0.07785665988922119
    y: -0.11248692870140076
    z: 0.09520822763442993
  orientation:
    x: -0.0020803994352485526
    y: 0.003237987242701411
    z: -0.8636076181155332
    w: -0.5041500862486109
---
header:
  stamp:
    sec: 1772667081
    nanosec: 175699105
  frame_id: map
pose:
  position:
    x: 0.07782995700836182
    y: -0.11250334978103638
    z: 0.09521138668060303
  orientation:
    x: -0.002080361980529661
    y: 0.0032449924275870135
    z: -0.8636193770862678
    w: -0.5041298136144773
---
header:
  stamp:
    sec: 1772667081
    nanosec: 212163459
  frame_id: map
pose:
  position:
    x: 0.07777851074934006
    y: -0.11253117769956589
    z: 0.09520986676216125
  orientation:
    x: -0.002070357495841483
    y: 0.0032535609559755352
    z: -0.8636311992772752
    w: -0.5041093934663737
---
header:
  stamp:
    sec: 1772667081
    nanosec: 246626321
  frame_id: map
pose:
  position:
    x: 0.07770569622516632
    y: -0.11256110668182373
    z: 0.09521234035491943
  orientation:
    x: -0.0020607304394744423
    y: 0.0032599611442534608
    z: -0.8633867897027604
    w: -0.5045279538189353
---
header:
  stamp:
    sec: 1772667081
    nanosec: 277859495
  frame_id: map
pose:
  position:
    x: 0.07763970643281937
    y: -0.11259063333272934
    z: 0.0952082946896553
  orientation:
    x: -0.002058374373020039
    y: 0.0032712013053928053
    z: -0.8630156445547735
    w: -0.5051624324764185
---
header:
  stamp:
    sec: 1772667081
    nanosec: 313530971
  frame_id: map
pose:
  position:
    x: 0.077511265873909
    y: -0.11263749748468399
    z: 0.09521686285734177
  orientation:
    x: -0.0020504420397852597
    y: 0.003271461924381839
    z: -0.8628505764225806
    w: -0.5054442473789865
---
header:
  stamp:
    sec: 1772667081
    nanosec: 344626225
  frame_id: map
pose:
  position:
    x: 0.07743046432733536
    y: -0.11267494410276413
    z: 0.09521108865737915
  orientation:
    x: -0.0020372913175511626
    y: 0.0032784045475391832
    z: -0.8625605428845529
    w: -0.5059391988944743
---
header:
  stamp:
    sec: 1772667081
    nanosec: 377887974
  frame_id: map
pose:
  position:
    x: 0.0773681253194809
    y: -0.11271265894174576
    z: 0.09520028531551361
  orientation:
    x: -0.0020256543010276945
    y: 0.0032910639544112942
    z: -0.8621836868385927
    w: -0.5065812429112649
---
header:
  stamp:
    sec: 1772667081
    nanosec: 410788102
  frame_id: map
pose:
  position:
    x: 0.0771942064166069
    y: -0.11278337985277176
    z: 0.0952121689915657
  orientation:
    x: -0.0020233807995909793
    y: 0.0032955011038289864
    z: -0.8620179443568237
    w: -0.506863057813833
---
header:
  stamp:
    sec: 1772667081
    nanosec: 444699653
  frame_id: map
pose:
  position:
    x: 0.07707991451025009
    y: -0.11283420771360397
    z: 0.09521180391311646
  orientation:
    x: -0.002013585238147959
    y: 0.0033042821774574597
    z: -0.8616981129968987
    w: -0.5074065203519567
---
header:
  stamp:
    sec: 1772667081
    nanosec: 478038330
  frame_id: map
pose:
  position:
    x: 0.07698453962802887
    y: -0.11289114505052567
    z: 0.09520470350980759
  orientation:
    x: -0.0020048605935520133
    y: 0.0033200041867229757
    z: -0.8614141380683444
    w: -0.5078885011748152
---
header:
  stamp:
    sec: 1772667081
    nanosec: 512815364
  frame_id: map
pose:
  position:
    x: 0.07682983577251434
    y: -0.11297186464071274
    z: 0.09520554542541504
  orientation:
    x: -0.0020032991022055227
    y: 0.0033230767084430324
    z: -0.8613174005142998
    w: -0.5080525893927803
---
header:
  stamp:
    sec: 1772667081
    nanosec: 544586150
  frame_id: map
pose:
  position:
    x: 0.07673026621341705
    y: -0.1130283772945404
    z: 0.09519652277231216
  orientation:
    x: -0.0019952847801795
    y: 0.003327477926026008
    z: -0.8610818733881088
    w: -0.5084516462911935
---
header:
  stamp:
    sec: 1772667081
    nanosec: 578002589
  frame_id: map
pose:
  position:
    x: 0.07661104947328568
    y: -0.11309011280536652
    z: 0.09519702941179276
  orientation:
    x: -0.0019909607769400856
    y: 0.0033406000838920717
    z: -0.860882908653001
    w: -0.5087885155146289
---
header:
  stamp:
    sec: 1772667081
    nanosec: 610798809
  frame_id: map
pose:
  position:
    x: 0.07644730806350708
    y: -0.11317194253206253
    z: 0.0951966717839241
  orientation:
    x: -0.001986460324931563
    y: 0.003343898692173525
    z: -0.8607954539423408
    w: -0.5089362402186596
---
header:
  stamp:
    sec: 1772667081
    nanosec: 644608171
  frame_id: map
pose:
  position:
    x: 0.07633146643638611
    y: -0.11323094367980957
    z: 0.09518776834011078
  orientation:
    x: -0.0019852868809364017
    y: 0.00334679159587903
    z: -0.8606495415527962
    w: -0.5091830521635394
---
header:
  stamp:
    sec: 1772667081
    nanosec: 677811429
  frame_id: map
pose:
  position:
    x: 0.07623402029275894
    y: -0.11328145861625671
    z: 0.09517242014408112
  orientation:
    x: -0.001973589772226581
    y: 0.00334837379021849
    z: -0.8605194342314431
    w: -0.5094029322722208
---
header:
  stamp:
    sec: 1772667081
    nanosec: 710192850
  frame_id: map
pose:
  position:
    x: 0.07607997208833694
    y: -0.1133560910820961
    z: 0.09515312314033508
  orientation:
    x: -0.001971977696430071
    y: 0.0033512822108789637
    z: -0.8604823555414656
    w: -0.5094655519523958
---
header:
  stamp:
    sec: 1772667081
    nanosec: 744578263
  frame_id: map
pose:
  position:
    x: 0.07598675787448883
    y: -0.11341003328561783
    z: 0.09513959288597107
  orientation:
    x: -0.001965592695834861
    y: 0.003351374489428145
    z: -0.8604046051426751
    w: -0.5095968288487951
---
header:
  stamp:
    sec: 1772667081
    nanosec: 778183559
  frame_id: map
pose:
  position:
    x: 0.07588358223438263
    y: -0.11346602439880371
    z: 0.09512954950332642
  orientation:
    x: -0.001960002558460786
    y: 0.0033568029541255102
    z: -0.8603552933299173
    w: -0.5096801110214526
---
header:
  stamp:
    sec: 1772667081
    nanosec: 810797224
  frame_id: map
pose:
  position:
    x: 0.0757070779800415
    y: -0.1135445088148117
    z: 0.09513083100318909
  orientation:
    x: -0.001962014082660419
    y: 0.003358850698273082
    z: -0.8603383397601038
    w: -0.5097087814151522
---
header:
  stamp:
    sec: 1772667081
    nanosec: 843165416
  frame_id: map
pose:
  position:
    x: 0.07558367401361465
    y: -0.11360236257314682
    z: 0.09512310475111008
  orientation:
    x: -0.0019597672934353093
    y: 0.0033728156284732365
    z: -0.860308731599025
    w: -0.5097585357698193
---
header:
  stamp:
    sec: 1772667081
    nanosec: 875667569
  frame_id: map
pose:
  position:
    x: 0.07548810541629791
    y: -0.11365588009357452
    z: 0.09510324895381927
  orientation:
    x: -0.0019582199607957405
    y: 0.003375462730441137
    z: -0.8602984793781246
    w: -0.5097757000738754
---
header:
  stamp:
    sec: 1772667081
    nanosec: 910676534
  frame_id: map
pose:
  position:
    x: 0.0753759816288948
    y: -0.11372077465057373
    z: 0.09507244825363159
  orientation:
    x: -0.001954934399927351
    y: 0.0033797278762651506
    z: -0.8602970885321238
    w: -0.5097781867379375
---
header:
  stamp:
    sec: 1772667081
    nanosec: 945104291
  frame_id: map
pose:
  position:
    x: 0.07528667151927948
    y: -0.11376868933439255
    z: 0.09504929929971695
  orientation:
    x: -0.0019553545513234442
    y: 0.0033899521090238363
    z: -0.8602980895197759
    w: -0.5097764271070122
---
header:
  stamp:
    sec: 1772667081
    nanosec: 978032284
  frame_id: map
pose:
  position:
    x: 0.07521995157003403
    y: -0.11380980908870697
    z: 0.09502196311950684
  orientation:
    x: -0.0019531206860343034
    y: 0.0033961458024394774
    z: -0.8603040006152796
    w: -0.5097664699140515
---
header:
  stamp:
    sec: 1772667082
    nanosec: 12433531
  frame_id: map
pose:
  position:
    x: 0.07509659230709076
    y: -0.11386043578386307
    z: 0.09500221163034439
  orientation:
    x: -0.0019524483944097165
    y: 0.003392354479388957
    z: -0.8603113657770569
    w: -0.5097540471304529
---
header:
  stamp:
    sec: 1772667082
    nanosec: 44123951
  frame_id: map
pose:
  position:
    x: 0.0749993845820427
    y: -0.11389923095703125
    z: 0.09499417245388031
  orientation:
    x: -0.001949526103155543
    y: 0.003400403210365522
    z: -0.8603248527685804
    w: -0.50973120353856
---
header:
  stamp:
    sec: 1772667082
    nanosec: 75701505
  frame_id: map
pose:
  position:
    x: 0.0749257430434227
    y: -0.11393246799707413
    z: 0.09497993439435959
  orientation:
    x: -0.001945810841995695
    y: 0.003410639379243415
    z: -0.8603419117055151
    w: -0.5097023434840421
---
header:
  stamp:
    sec: 1772667082
    nanosec: 112918475
  frame_id: map
pose:
  position:
    x: 0.07484842836856842
    y: -0.11397780478000641
    z: 0.0949554368853569
  orientation:
    x: -0.001948718727588756
    y: 0.0034134954044564726
    z: -0.8603477911908823
    w: -0.5096924179012178
---
header:
  stamp:
    sec: 1772667082
    nanosec: 146554970
  frame_id: map
pose:
  position:
    x: 0.07477188855409622
    y: -0.11401344835758209
    z: 0.09494810551404953
  orientation:
    x: -0.001951388796296372
    y: 0.0034098342262643424
    z: -0.860364923884802
    w: -0.5096635683834121
---
header:
  stamp:
    sec: 1772667082
    nanosec: 177841477
  frame_id: map
pose:
  position:
    x: 0.07471797615289688
    y: -0.11404746025800705
    z: 0.09492946416139603
  orientation:
    x: -0.001954442631816015
    y: 0.003405282201989039
    z: -0.8603787901979622
    w: -0.5096400082950945
---
header:
  stamp:
    sec: 1772667082
    nanosec: 210812752
  frame_id: map
pose:
  position:
    x: 0.0746489092707634
    y: -0.11409544199705124
    z: 0.0949055552482605
  orientation:
    x: -0.0019489632945554082
    y: 0.0034037483695118836
    z: -0.8603865557548003
    w: -0.509626932235344
---
header:
  stamp:
    sec: 1772667082
    nanosec: 244596801
  frame_id: map
pose:
  position:
    x: 0.07454775273799896
    y: -0.11414169520139694
    z: 0.09489799290895462
  orientation:
    x: -0.0019492404594752058
    y: 0.003410686547493799
    z: -0.8602181474848629
    w: -0.5099110757512924
---
header:
  stamp:
    sec: 1772667082
    nanosec: 278165742
  frame_id: map
pose:
  position:
    x: 0.07446015626192093
    y: -0.11419463157653809
    z: 0.09488826990127563
  orientation:
    x: -0.0019326896719463935
    y: 0.003421070065705353
    z: -0.8598811939677304
    w: -0.5104791625856585
---
header:
  stamp:
    sec: 1772667082
    nanosec: 310765396
  frame_id: map
pose:
  position:
    x: 0.07433211803436279
    y: -0.11426577717065811
    z: 0.09488529711961746
  orientation:
    x: -0.0019298953852809593
    y: 0.0034219262558837942
    z: -0.8597101831298974
    w: -0.5107670887812606
---
header:
  stamp:
    sec: 1772667082
    nanosec: 344614602
  frame_id: map
pose:
  position:
    x: 0.07422774285078049
    y: -0.11432711035013199
    z: 0.09488742053508759
  orientation:
    x: -0.0019179635466130744
    y: 0.003429435638908321
    z: -0.8593769596088582
    w: -0.5113275681094707
---
header:
  stamp:
    sec: 1772667082
    nanosec: 375685637
  frame_id: map
pose:
  position:
    x: 0.07413970679044724
    y: -0.1143837422132492
    z: 0.09488356113433838
  orientation:
    x: -0.0019078587573645239
    y: 0.0034312371697279714
    z: -0.8590352751079804
    w: -0.5119015660393406
---
header:
  stamp:
    sec: 1772667082
    nanosec: 412356817
  frame_id: map
pose:
  position:
    x: 0.07403821498155594
    y: -0.11446435004472733
    z: 0.09486868977546692
  orientation:
    x: -0.0019073499494140437
    y: 0.0034389649425749583
    z: -0.8588663189290123
    w: -0.5121846558840761
---
header:
  stamp:
    sec: 1772667082
    nanosec: 444149635
  frame_id: map
pose:
  position:
    x: 0.07394285500049591
    y: -0.11453696340322495
    z: 0.09486698359251022
  orientation:
    x: -0.00190099310159655
    y: 0.003445283924083243
    z: -0.8584894944931886
    w: -0.5128162158722998
---
header:
  stamp:
    sec: 1772667082
    nanosec: 478524006
  frame_id: map
pose:
  position:
    x: 0.07382475584745407
    y: -0.11461599171161652
    z: 0.09487215429544449
  orientation:
    x: -0.0018925036397080177
    y: 0.0034545616637478307
    z: -0.8581882815035934
    w: -0.5133200709095354
---
header:
  stamp:
    sec: 1772667082
    nanosec: 512325555
  frame_id: map
pose:
  position:
    x: 0.07365541160106659
    y: -0.1147211566567421
    z: 0.09488378465175629
  orientation:
    x: -0.0018902047431487137
    y: 0.0034567611200864296
    z: -0.8580870658468944
    w: -0.5134892272860339
---
header:
  stamp:
    sec: 1772667082
    nanosec: 544660361
  frame_id: map
pose:
  position:
    x: 0.07353276014328003
    y: -0.11479358375072479
    z: 0.09488695114850998
  orientation:
    x: -0.0018794947514973273
    y: 0.003460268939726263
    z: -0.8578073161399034
    w: -0.5139565304688983
---
header:
  stamp:
    sec: 1772667082
    nanosec: 578218312
  frame_id: map
pose:
  position:
    x: 0.07343225926160812
    y: -0.11485721170902252
    z: 0.0948849618434906
  orientation:
    x: -0.0018747826185885207
    y: 0.003467135500992935
    z: -0.8576206477478486
    w: -0.5142678692388484
---
header:
  stamp:
    sec: 1772667082
    nanosec: 613505667
  frame_id: map
pose:
  position:
    x: 0.07327812165021896
    y: -0.11494659632444382
    z: 0.09489575773477554
  orientation:
    x: -0.0018718949009210164
    y: 0.0034723571003967297
    z: -0.8575244159559862
    w: -0.5144281642404475
---
header:
  stamp:
    sec: 1772667082
    nanosec: 642841465
  frame_id: map
pose:
  position:
    x: 0.07317407429218292
    y: -0.11501173675060272
    z: 0.09490329027175903
  orientation:
    x: -0.0018654623204851046
    y: 0.003478134758319453
    z: -0.8573458713689818
    w: -0.5147256472339494
---
header:
  stamp:
    sec: 1772667082
    nanosec: 678198404
  frame_id: map
pose:
  position:
    x: 0.0730728730559349
    y: -0.11507976800203323
    z: 0.09491091221570969
  orientation:
    x: -0.001862779245523456
    y: 0.003481564622753154
    z: -0.8572185246662062
    w: -0.514937793395929
---
header:
  stamp:
    sec: 1772667082
    nanosec: 712747310
  frame_id: map
pose:
  position:
    x: 0.07291873544454575
    y: -0.11516701430082321
    z: 0.0949295163154602
  orientation:
    x: -0.0018511928957680717
    y: 0.0034849734960806632
    z: -0.8571685490405845
    w: -0.5150210650318745
---
header:
  stamp:
    sec: 1772667082
    nanosec: 744403511
  frame_id: map
pose:
  position:
    x: 0.07283002138137817
    y: -0.11522974073886871
    z: 0.09493087232112885
  orientation:
    x: -0.001842601194844675
    y: 0.003482569150082018
    z: -0.8570961512915548
    w: -0.5151414258945094
---
header:
  stamp:
    sec: 1772667082
    nanosec: 778108391
  frame_id: map
pose:
  position:
    x: 0.07275988906621933
    y: -0.11528633534908295
    z: 0.0949251651763916
  orientation:
    x: -0.0018464180364948792
    y: 0.0034872508253073306
    z: -0.8570353333891535
    w: -0.51524245189039
---
header:
  stamp:
    sec: 1772667082
    nanosec: 812350000
  frame_id: map
pose:
  position:
    x: 0.07264520972967148
    y: -0.11536843329668045
    z: 0.09492463618516922
  orientation:
    x: -0.0018473082240335445
    y: 0.0034978825324803306
    z: -0.8570076112995455
    w: -0.5152886342996458
---
header:
  stamp:
    sec: 1772667082
    nanosec: 844537720
  frame_id: map
pose:
  position:
    x: 0.0725882425904274
    y: -0.11543111503124237
    z: 0.09492026269435883
  orientation:
    x: -0.001850784433536995
    y: 0.003498646691063781
    z: -0.8569792991540583
    w: -0.515335828233266
---
header:
  stamp:
    sec: 1772667082
    nanosec: 878261820
  frame_id: map
pose:
  position:
    x: 0.07251527160406113
    y: -0.11548928916454315
    z: 0.0949164405465126
  orientation:
    x: -0.0018457282934408307
    y: 0.0035015042803200453
    z: -0.8569638839442155
    w: -0.5153612743930543
---
header:
  stamp:
    sec: 1772667082
    nanosec: 911424817
  frame_id: map
pose:
  position:
    x: 0.07239886373281479
    y: -0.11556495726108551
    z: 0.09492301940917969
  orientation:
    x: -0.0018459721195449113
    y: 0.0035074089550147453
    z: -0.8569609020546833
    w: -0.5153661950376179
---
header:
  stamp:
    sec: 1772667082
    nanosec: 944700420
  frame_id: map
pose:
  position:
    x: 0.07233709841966629
    y: -0.11561384052038193
    z: 0.09492635726928711
  orientation:
    x: -0.0018486219380089066
    y: 0.003513405496668309
    z: -0.8569615658675473
    w: -0.5153650254625718
---
header:
  stamp:
    sec: 1772667082
    nanosec: 978294413
  frame_id: map
pose:
  position:
    x: 0.07229690253734589
    y: -0.11565601825714111
    z: 0.09492229670286179
  orientation:
    x: -0.0018429978855926707
    y: 0.0035164375179011246
    z: -0.8569689099559005
    w: -0.5153530452208827
---
header:
  stamp:
    sec: 1772667083
    nanosec: 13137229
  frame_id: map
pose:
  position:
    x: 0.07222124189138412
    y: -0.11571076512336731
    z: 0.09492108225822449
  orientation:
    x: -0.0018398738327648643
    y: 0.0035140169552439707
    z: -0.8569703640221741
    w: -0.5153504110428507
---
header:
  stamp:
    sec: 1772667083
    nanosec: 44569416
  frame_id: map
pose:
  position:
    x: 0.07218077033758163
    y: -0.11574302613735199
    z: 0.09491077810525894
  orientation:
    x: -0.0018401975073905378
    y: 0.0035167420124180035
    z: -0.856984388386016
    w: -0.5153271143723362
---
header:
  stamp:
    sec: 1772667083
    nanosec: 78419612
  frame_id: map
pose:
  position:
    x: 0.07214361429214478
    y: -0.1157669648528099
    z: 0.09490037709474564
  orientation:
    x: -0.001834970474994552
    y: 0.003528018105392065
    z: -0.8569962000403112
    w: -0.5153074634042181
---
header:
  stamp:
    sec: 1772667083
    nanosec: 110746345
  frame_id: map
pose:
  position:
    x: 0.07206206023693085
    y: -0.11578887701034546
    z: 0.09489298611879349
  orientation:
    x: -0.0018285753492775318
    y: 0.003532994067694382
    z: -0.857004271161801
    w: -0.5152939974861188
---
header:
  stamp:
    sec: 1772667083
    nanosec: 144705448
  frame_id: map
pose:
  position:
    x: 0.07202936708927155
    y: -0.11579699069261551
    z: 0.09487708657979965
  orientation:
    x: -0.0018310377295109427
    y: 0.003534463856718136
    z: -0.8570178635204458
    w: -0.5152713857018928
---
header:
  stamp:
    sec: 1772667083
    nanosec: 178355067
  frame_id: map
pose:
  position:
    x: 0.07202250510454178
    y: -0.11580254882574081
    z: 0.09485217928886414
  orientation:
    x: -0.001828726979150495
    y: 0.0035307199488721908
    z: -0.8570334578543948
    w: -0.515245507536907
---
header:
  stamp:
    sec: 1772667083
    nanosec: 212418808
  frame_id: map
pose:
  position:
    x: 0.0720207616686821
    y: -0.11580727249383926
    z: 0.09482646733522415
  orientation:
    x: -0.0018334484963185406
    y: 0.0035309388326030316
    z: -0.8570428039180521
    w: -0.5152300080333672
---
header:
  stamp:
    sec: 1772667083
    nanosec: 244693040
  frame_id: map
pose:
  position:
    x: 0.07200358808040619
    y: -0.11581805348396301
    z: 0.09480918943881989
  orientation:
    x: -0.0018268385204557908
    y: 0.003536337086571093
    z: -0.8568718668372041
    w: -0.5155140672556184
---
header:
  stamp:
    sec: 1772667083
    nanosec: 278210261
  frame_id: map
pose:
  position:
    x: 0.07198354601860046
    y: -0.11583089828491211
    z: 0.09479045867919922
  orientation:
    x: -0.0018215446457922448
    y: 0.003540111040510215
    z: -0.856526209995854
    w: -0.5160882443095944
---
header:
  stamp:
    sec: 1772667083
    nanosec: 310723456
  frame_id: map
pose:
  position:
    x: 0.07193055003881454
    y: -0.11585491895675659
    z: 0.09476684033870697
  orientation:
    x: -0.001822169028303876
    y: 0.003540279545586195
    z: -0.8563484978091079
    w: -0.516383040441504
---
header:
  stamp:
    sec: 1772667083
    nanosec: 344869333
  frame_id: map
pose:
  position:
    x: 0.07189841568470001
    y: -0.11587118357419968
    z: 0.09474044293165207
  orientation:
    x: -0.0018207625418709516
    y: 0.00354233206418145
    z: -0.8559962344492539
    w: -0.5169667742933799
---
header:
  stamp:
    sec: 1772667083
    nanosec: 378255667
  frame_id: map
pose:
  position:
    x: 0.07183995842933655
    y: -0.11589954048395157
    z: 0.09472141414880753
  orientation:
    x: -0.0018055793043310292
    y: 0.0035402989726491807
    z: -0.8556453303252644
    w: -0.5175475473291479
---
header:
  stamp:
    sec: 1772667083
    nanosec: 413393384
  frame_id: map
pose:
  position:
    x: 0.07173337042331696
    y: -0.11594560742378235
    z: 0.09470949321985245
  orientation:
    x: -0.0018036824491938484
    y: 0.003538915617592099
    z: -0.8554289589417214
    w: -0.5179051106552021
---
header:
  stamp:
    sec: 1772667083
    nanosec: 443212211
  frame_id: map
pose:
  position:
    x: 0.07167128473520279
    y: -0.11597851663827896
    z: 0.09469172358512878
  orientation:
    x: -0.001786965955403215
    y: 0.0035478754448954584
    z: -0.8550914996624069
    w: -0.5184620707215615
---
header:
  stamp:
    sec: 1772667083
    nanosec: 478424825
  frame_id: map
pose:
  position:
    x: 0.07163093984127045
    y: -0.11600751429796219
    z: 0.09467239677906036
  orientation:
    x: -0.001784230196880928
    y: 0.0035502947727816597
    z: -0.8547896755435083
    w: -0.5189593719238537
---
header:
  stamp:
    sec: 1772667083
    nanosec: 510089098
  frame_id: map
pose:
  position:
    x: 0.07154317200183868
    y: -0.11605566740036011
    z: 0.09466193616390228
  orientation:
    x: -0.0017806059794993085
    y: 0.0035518544531307535
    z: -0.8546837605132004
    w: -0.5191338177298402
---
header:
  stamp:
    sec: 1772667083
    nanosec: 544648368
  frame_id: map
pose:
  position:
    x: 0.07148537784814835
    y: -0.11609998345375061
    z: 0.09464699774980545
  orientation:
    x: -0.0017689924647829698
    y: 0.0035511054410709867
    z: -0.854406623910817
    w: -0.5195899941446979
---
header:
  stamp:
    sec: 1772667083
    nanosec: 578547054
  frame_id: map
pose:
  position:
    x: 0.07144630700349808
    y: -0.11614275723695755
    z: 0.09462546557188034
  orientation:
    x: -0.0017563489041380826
    y: 0.0035540934221398313
    z: -0.8541929709990032
    w: -0.5199410457826572
---
header:
  stamp:
    sec: 1772667083
    nanosec: 612170788
  frame_id: map
pose:
  position:
    x: 0.07139122486114502
    y: -0.11620192229747772
    z: 0.09460202604532242
  orientation:
    x: -0.0017517060007206772
    y: 0.0035565048474919367
    z: -0.8541000688081729
    w: -0.5200937122046758
---
header:
  stamp:
    sec: 1772667083
    nanosec: 643450368
  frame_id: map
pose:
  position:
    x: 0.07134512066841125
    y: -0.11624640226364136
    z: 0.09458562731742859
  orientation:
    x: -0.0017445175758257286
    y: 0.003565439073877548
    z: -0.8539437988306068
    w: -0.520350123094304
---
header:
  stamp:
    sec: 1772667083
    nanosec: 678320007
  frame_id: map
pose:
  position:
    x: 0.07131601870059967
    y: -0.11628855764865875
    z: 0.09456376731395721
  orientation:
    x: -0.001744896156599755
    y: 0.0035721987862978
    z: -0.8538227846918198
    w: -0.520548771728048
---
header:
  stamp:
    sec: 1772667083
    nanosec: 710768878
  frame_id: map
pose:
  position:
    x: 0.07124269008636475
    y: -0.11634884029626846
    z: 0.0945502519607544
  orientation:
    x: -0.001743715550933069
    y: 0.0035663118923048155
    z: -0.8537846101837812
    w: -0.5206113914082231
---
header:
  stamp:
    sec: 1772667083
    nanosec: 744706366
  frame_id: map
pose:
  position:
    x: 0.0711774006485939
    y: -0.11639679968357086
    z: 0.09454450756311417
  orientation:
    x: -0.0017291898700843673
    y: 0.0035749663195925973
    z: -0.8536918238967844
    w: -0.5207633518705291
---
header:
  stamp:
    sec: 1772667083
    nanosec: 778239421
  frame_id: map
pose:
  position:
    x: 0.0711347833275795
    y: -0.11644081771373749
    z: 0.09453567862510681
  orientation:
    x: -0.0017274077663277025
    y: 0.0035809071319171733
    z: -0.8536412055317227
    w: -0.520846423308944
---
header:
  stamp:
    sec: 1772667083
    nanosec: 810784803
  frame_id: map
pose:
  position:
    x: 0.07106003165245056
    y: -0.11649762839078903
    z: 0.09453517943620682
  orientation:
    x: -0.001722529021658376
    y: 0.0035854088598556793
    z: -0.8536154643439947
    w: -0.5208885174738942
---
header:
  stamp:
    sec: 1772667083
    nanosec: 843635139
  frame_id: map
pose:
  position:
    x: 0.07102347910404205
    y: -0.11653200536966324
    z: 0.09453276544809341
  orientation:
    x: -0.0017314894251881795
    y: 0.003590739859965863
    z: -0.8535795341556393
    w: -0.5209473755478398
---
header:
  stamp:
    sec: 1772667083
    nanosec: 878187846
  frame_id: map
pose:
  position:
    x: 0.07101024687290192
    y: -0.11656414717435837
    z: 0.09452259540557861
  orientation:
    x: -0.0017271019547218079
    y: 0.003599209977109473
    z: -0.8535626754162349
    w: -0.5209751081741599
---
header:
  stamp:
    sec: 1772667083
    nanosec: 910348013
  frame_id: map
pose:
  position:
    x: 0.07094329595565796
    y: -0.11660655587911606
    z: 0.0945306122303009
  orientation:
    x: -0.0017186186666880382
    y: 0.003598874037092339
    z: -0.853557238472777
    w: -0.5209839168654986
---
header:
  stamp:
    sec: 1772667083
    nanosec: 944840615
  frame_id: map
pose:
  position:
    x: 0.07089357823133469
    y: -0.11663082242012024
    z: 0.09453251212835312
  orientation:
    x: -0.0017151822991273208
    y: 0.0036104829419971213
    z: -0.853560209825597
    w: -0.5209790910513442
---
header:
  stamp:
    sec: 1772667083
    nanosec: 978456015
  frame_id: map
pose:
  position:
    x: 0.0708344429731369
    y: -0.11665499210357666
    z: 0.09453742206096649
  orientation:
    x: -0.0017097480721655108
    y: 0.0036152335997596454
    z: -0.8535661314578128
    w: -0.5209692919090654
---
header:
  stamp:
    sec: 1772667084
    nanosec: 12596112
  frame_id: map
pose:
  position:
    x: 0.07076570391654968
    y: -0.11668114364147186
    z: 0.09454552084207535
  orientation:
    x: -0.0017093754182920561
    y: 0.003615408361008451
    z: -0.8535708835149823
    w: -0.520961505278803
---
header:
  stamp:
    sec: 1772667084
    nanosec: 45256079
  frame_id: map
pose:
  position:
    x: 0.07072567194700241
    y: -0.116689532995224
    z: 0.09454679489135742
  orientation:
    x: -0.001708986136169775
    y: 0.0036234413692348877
    z: -0.8535765311926828
    w: -0.5209521486784336
---
header:
  stamp:
    sec: 1772667084
    nanosec: 78477931
  frame_id: map
pose:
  position:
    x: 0.07070992887020111
    y: -0.11669297516345978
    z: 0.0945371687412262
  orientation:
    x: -0.0017015389032831888
    y: 0.0036320015423399648
    z: -0.8535965825558619
    w: -0.5209192003796103
---
header:
  stamp:
    sec: 1772667084
    nanosec: 113108139
  frame_id: map
pose:
  position:
    x: 0.07066125422716141
    y: -0.1166955754160881
    z: 0.09453312307596207
  orientation:
    x: -0.0016968650482739084
    y: 0.0036315529088939012
    z: -0.8536042532822908
    w: -0.5209066406187539
---
header:
  stamp:
    sec: 1772667084
    nanosec: 144656890
  frame_id: map
pose:
  position:
    x: 0.07062062621116638
    y: -0.11669941246509552
    z: 0.09452474862337112
  orientation:
    x: -0.0016830616261143368
    y: 0.0036383681860070144
    z: -0.8536243784024548
    w: -0.5208737871503397
---
header:
  stamp:
    sec: 1772667084
    nanosec: 178511513
  frame_id: map
pose:
  position:
    x: 0.07059882581233978
    y: -0.11669986695051193
    z: 0.0945078581571579
  orientation:
    x: -0.0016823911454871467
    y: 0.0036357976398381673
    z: -0.8536404574251617
    w: -0.5208475085902932
---
header:
  stamp:
    sec: 1772667084
    nanosec: 212404625
  frame_id: map
pose:
  position:
    x: 0.07055122405290604
    y: -0.11669652909040451
    z: 0.09449740499258041
  orientation:
    x: -0.0016830993277874187
    y: 0.003644637365086883
    z: -0.8536482229819998
    w: -0.5208346011179368
---
header:
  stamp:
    sec: 1772667084
    nanosec: 244798651
  frame_id: map
pose:
  position:
    x: 0.0705309808254242
    y: -0.11669173091650009
    z: 0.0944884791970253
  orientation:
    x: -0.0016792842148165477
    y: 0.003651504173307746
    z: -0.8534785608433192
    w: -0.5211124120698962
---
header:
  stamp:
    sec: 1772667084
    nanosec: 278287486
  frame_id: map
pose:
  position:
    x: 0.07048042863607407
    y: -0.11670015007257462
    z: 0.09448353946208954
  orientation:
    x: -0.001669029853646622
    y: 0.00366563571526842
    z: -0.8531211134210984
    w: -0.521697368180379
---
header:
  stamp:
    sec: 1772667084
    nanosec: 312383571
  frame_id: map
pose:
  position:
    x: 0.07041096687316895
    y: -0.11672021448612213
    z: 0.09447571635246277
  orientation:
    x: -0.0016600249983625295
    y: 0.0036710468931724504
    z: -0.8529449290576107
    w: -0.5219855788672085
---
header:
  stamp:
    sec: 1772667084
    nanosec: 344894057
  frame_id: map
pose:
  position:
    x: 0.07032324373722076
    y: -0.11674337089061737
    z: 0.09447800368070602
  orientation:
    x: -0.0016528031523338003
    y: 0.0036762213243258612
    z: -0.8525836041253269
    w: -0.5225754240121187
---
header:
  stamp:
    sec: 1772667084
    nanosec: 378298880
  frame_id: map
pose:
  position:
    x: 0.07024957239627838
    y: -0.11676648259162903
    z: 0.09447333216667175
  orientation:
    x: -0.0016382185317516344
    y: 0.0036803212577964342
    z: -0.8522189495920105
    w: -0.5231699474572132
---
header:
  stamp:
    sec: 1772667084
    nanosec: 410765771
  frame_id: map
pose:
  position:
    x: 0.07012567669153214
    y: -0.11680593341588974
    z: 0.0944758728146553
  orientation:
    x: -0.0016336036164758185
    y: 0.003683731365894896
    z: -0.8520402574910364
    w: -0.5234608344689232
---
header:
  stamp:
    sec: 1772667084
    nanosec: 446696574
  frame_id: map
pose:
  position:
    x: 0.07004767656326294
    y: -0.11683379113674164
    z: 0.09447216987609863
  orientation:
    x: -0.0016335389967959727
    y: 0.003690036353332386
    z: -0.8516865189914846
    w: -0.5240360968042486
---
header:
  stamp:
    sec: 1772667084
    nanosec: 478302930
  frame_id: map
pose:
  position:
    x: 0.06999344378709793
    y: -0.11686079949140549
    z: 0.09445862472057343
  orientation:
    x: -0.001628708490511856
    y: 0.003692808908029057
    z: -0.8513662766997866
    w: -0.524556199451585
---
header:
  stamp:
    sec: 1772667084
    nanosec: 510778624
  frame_id: map
pose:
  position:
    x: 0.06991475820541382
    y: -0.11690035462379456
    z: 0.09443426132202148
  orientation:
    x: -0.001626572830672468
    y: 0.003693969592724376
    z: -0.8512192158086199
    w: -0.5247948875914143
---
header:
  stamp:
    sec: 1772667084
    nanosec: 544717519
  frame_id: map
pose:
  position:
    x: 0.06984607875347137
    y: -0.11693361401557922
    z: 0.09442149847745895
  orientation:
    x: -0.0016144578343133004
    y: 0.0037035547903561286
    z: -0.8509537960301226
    w: -0.5252251858412863
---
header:
  stamp:
    sec: 1772667084
    nanosec: 578198541
  frame_id: map
pose:
  position:
    x: 0.06977935135364532
    y: -0.11696982383728027
    z: 0.094406858086586
  orientation:
    x: -0.001605668405401382
    y: 0.003701972143267319
    z: -0.850727783554983
    w: -0.5255912101471792
---
header:
  stamp:
    sec: 1772667084
    nanosec: 610779653
  frame_id: map
pose:
  position:
    x: 0.06967862695455551
    y: -0.11702485382556915
    z: 0.09439095109701157
  orientation:
    x: -0.0016031265059186324
    y: 0.003700538409555377
    z: -0.8506019330653295
    w: -0.5257946951317898
---
header:
  stamp:
    sec: 1772667084
    nanosec: 644700683
  frame_id: map
pose:
  position:
    x: 0.0696125254034996
    y: -0.11706586182117462
    z: 0.09436742216348648
  orientation:
    x: -0.00159969944029909
    y: 0.0037074524683446877
    z: -0.8504563683872849
    w: -0.5260301168908594
---
header:
  stamp:
    sec: 1772667084
    nanosec: 681866454
  frame_id: map
pose:
  position:
    x: 0.06950143724679947
    y: -0.11712167412042618
    z: 0.09434521943330765
  orientation:
    x: -0.0015954212882210437
    y: 0.003715185015639357
    z: -0.8503184217521087
    w: -0.5262530315726336
---
header:
  stamp:
    sec: 1772667084
    nanosec: 712409824
  frame_id: map
pose:
  position:
    x: 0.0693974494934082
    y: -0.1171603724360466
    z: 0.09433327615261078
  orientation:
    x: -0.001593690797890192
    y: 0.003714968189860104
    z: -0.8502629354260441
    w: -0.526342741139689
---
header:
  stamp:
    sec: 1772667084
    nanosec: 742873401
  frame_id: map
pose:
  position:
    x: 0.06930425763130188
    y: -0.1171925961971283
    z: 0.09431719779968262
  orientation:
    x: -0.001593386714963631
    y: 0.0037226802399569626
    z: -0.8501719509168213
    w: -0.5264895280763403
---
header:
  stamp:
    sec: 1772667084
    nanosec: 778341384
  frame_id: map
pose:
  position:
    x: 0.06920266896486282
    y: -0.11722534149885178
    z: 0.0943034291267395
  orientation:
    x: -0.0015921553190517668
    y: 0.0037284898372883226
    z: -0.8500988050612307
    w: -0.5266076867661407
---
header:
  stamp:
    sec: 1772667084
    nanosec: 813071489
  frame_id: map
pose:
  position:
    x: 0.06907165795564651
    y: -0.11726734787225723
    z: 0.09428448975086212
  orientation:
    x: -0.0015888773314452194
    y: 0.0037324010154392954
    z: -0.8500826944283874
    w: -0.5266334911741415
---
header:
  stamp:
    sec: 1772667084
    nanosec: 844576802
  frame_id: map
pose:
  position:
    x: 0.06897023320198059
    y: -0.11729779839515686
    z: 0.09426381438970566
  orientation:
    x: -0.001582433226480418
    y: 0.003742702544859606
    z: -0.8500495670054579
    w: -0.5266871019654473
---
header:
  stamp:
    sec: 1772667084
    nanosec: 877904229
  frame_id: map
pose:
  position:
    x: 0.06887982040643692
    y: -0.11732157319784164
    z: 0.09423666447401047
  orientation:
    x: -0.001577267191769484
    y: 0.0037410720709759038
    z: -0.8500324764583866
    w: -0.5267147292246462
---
header:
  stamp:
    sec: 1772667084
    nanosec: 910576852
  frame_id: map
pose:
  position:
    x: 0.06872814893722534
    y: -0.11735586076974869
    z: 0.0942126214504242
  orientation:
    x: -0.0015776549921666225
    y: 0.0037427079778517966
    z: -0.8500303585792489
    w: -0.5267181115092392
---
header:
  stamp:
    sec: 1772667084
    nanosec: 944717730
  frame_id: map
pose:
  position:
    x: 0.06862925738096237
    y: -0.11737538129091263
    z: 0.09419066458940506
  orientation:
    x: -0.0015756329312548614
    y: 0.00374555684139333
    z: -0.8500279140620353
    w: -0.5267220733129993
---
header:
  stamp:
    sec: 1772667084
    nanosec: 978034739
  frame_id: map
pose:
  position:
    x: 0.06849292665719986
    y: -0.1173943504691124
    z: 0.09418164193630219
  orientation:
    x: -0.0015709235971602135
    y: 0.0037572948210216773
    z: -0.8500376183739049
    w: -0.526706468442338
---
header:
  stamp:
    sec: 1772667085
    nanosec: 12523018
  frame_id: map
pose:
  position:
    x: 0.06830103695392609
    y: -0.11741647124290466
    z: 0.09416800737380981
  orientation:
    x: -0.0015714126487754543
    y: 0.0037629167331682625
    z: -0.8500430447806507
    w: -0.5266974174066203
---
header:
  stamp:
    sec: 1772667085
    nanosec: 42753049
  frame_id: map
pose:
  position:
    x: 0.06817656755447388
    y: -0.11742755770683289
    z: 0.09414443373680115
  orientation:
    x: -0.001570258467207151
    y: 0.003770617834962676
    z: -0.8500598508364945
    w: -0.526670411813437
---
header:
  stamp:
    sec: 1772667085
    nanosec: 77960663
  frame_id: map
pose:
  position:
    x: 0.0680716410279274
    y: -0.11743438243865967
    z: 0.09411356598138809
  orientation:
    x: -0.0015598243233865459
    y: 0.0037808372932736788
    z: -0.8500765515252169
    w: -0.5266434272936779
---
header:
  stamp:
    sec: 1772667085
    nanosec: 110740215
  frame_id: map
pose:
  position:
    x: 0.06795885413885117
    y: -0.1174449622631073
    z: 0.09405234456062317
  orientation:
    x: -0.0015557791314281984
    y: 0.0037798735957043092
    z: -0.8500827681853723
    w: -0.5266334174171566
---
header:
  stamp:
    sec: 1772667085
    nanosec: 143564248
  frame_id: map
pose:
  position:
    x: 0.0678924098610878
    y: -0.11745220422744751
    z: 0.09399931132793427
  orientation:
    x: -0.0015532899155060872
    y: 0.0037862518462183125
    z: -0.8500985205700032
    w: -0.5266079712573681
---
header:
  stamp:
    sec: 1772667085
    nanosec: 178626807
  frame_id: map
pose:
  position:
    x: 0.06782513856887817
    y: -0.11746051907539368
    z: 0.09394633769989014
  orientation:
    x: -0.0015550957268650393
    y: 0.003780505633795846
    z: -0.8501153898461197
    w: -0.5265807338565179
---
header:
  stamp:
    sec: 1772667085
    nanosec: 210888903
  frame_id: map
pose:
  position:
    x: 0.06770392507314682
    y: -0.1174740418791771
    z: 0.09389400482177734
  orientation:
    x: -0.0015529928296149236
    y: 0.003780029670752701
    z: -0.8501217856303812
    w: -0.5265702076811023
---
header:
  stamp:
    sec: 1772667085
    nanosec: 244738213
  frame_id: map
pose:
  position:
    x: 0.0676223561167717
    y: -0.11748630553483963
    z: 0.09385339915752411
  orientation:
    x: -0.0015446269271397015
    y: 0.0037803356469947227
    z: -0.8501394662333316
    w: -0.5265417374849332
---
header:
  stamp:
    sec: 1772667085
    nanosec: 275743882
  frame_id: map
pose:
  position:
    x: 0.06754808127880096
    y: -0.1175079271197319
    z: 0.09380513429641724
  orientation:
    x: -0.0015369660788783386
    y: 0.0037838012374679817
    z: -0.8497752437052125
    w: -0.5271293383101601
---
header:
  stamp:
    sec: 1772667085
    nanosec: 312476729
  frame_id: map
pose:
  position:
    x: 0.06744547188282013
    y: -0.11754577606916428
    z: 0.09373881667852402
  orientation:
    x: -0.0015301357375596056
    y: 0.0037815597989169993
    z: -0.8495469026166926
    w: -0.527497354054645
---
header:
  stamp:
    sec: 1772667085
    nanosec: 344731742
  frame_id: map
pose:
  position:
    x: 0.06738074123859406
    y: -0.11757632344961166
    z: 0.09368563443422318
  orientation:
    x: -0.0015186966548198185
    y: 0.0037854720472027975
    z: -0.849226186172949
    w: -0.5280135475817822
---
header:
  stamp:
    sec: 1772667085
    nanosec: 378048751
  frame_id: map
pose:
  position:
    x: 0.06731155514717102
    y: -0.11760912090539932
    z: 0.09363208711147308
  orientation:
    x: -0.0015169434447034416
    y: 0.0037885031629369148
    z: -0.8489911226620916
    w: -0.5283914046153945
---
header:
  stamp:
    sec: 1772667085
    nanosec: 411380709
  frame_id: map
pose:
  position:
    x: 0.06715688854455948
    y: -0.11766540259122849
    z: 0.09358341991901398
  orientation:
    x: -0.0015080539993443734
    y: 0.0037922483878718763
    z: -0.8486655804041935
    w: -0.5289140255369296
---
header:
  stamp:
    sec: 1772667085
    nanosec: 446311755
  frame_id: map
pose:
  position:
    x: 0.06704912334680557
    y: -0.11770863085985184
    z: 0.09354536235332489
  orientation:
    x: -0.0015021831573737705
    y: 0.0037994063550833308
    z: -0.8482470621984802
    w: -0.529585003365223
---
header:
  stamp:
    sec: 1772667085
    nanosec: 478522757
  frame_id: map
pose:
  position:
    x: 0.066952183842659
    y: -0.11775144934654236
    z: 0.09350066632032394
  orientation:
    x: -0.0015007976620470384
    y: 0.003800208709248244
    z: -0.8479407599769274
    w: -0.5300754030210716
---
header:
  stamp:
    sec: 1772667085
    nanosec: 512430140
  frame_id: map
pose:
  position:
    x: 0.06679175794124603
    y: -0.11781395971775055
    z: 0.09345581382513046
  orientation:
    x: -0.0014966104714291572
    y: 0.003807457802555991
    z: -0.8477847007336036
    w: -0.5303246910933013
---
header:
  stamp:
    sec: 1772667085
    nanosec: 544642652
  frame_id: map
pose:
  position:
    x: 0.06668690592050552
    y: -0.11785627901554108
    z: 0.09342333674430847
  orientation:
    x: -0.0014873929062689866
    y: 0.003808507110911398
    z: -0.847497554254699
    w: -0.5307835438330395
---
header:
  stamp:
    sec: 1772667085
    nanosec: 578317428
  frame_id: map
pose:
  position:
    x: 0.06656751036643982
    y: -0.11790511757135391
    z: 0.09340164065361023
  orientation:
    x: -0.0014829168615662915
    y: 0.003819509331688202
    z: -0.8472518697380167
    w: -0.5311757307951454
---
header:
  stamp:
    sec: 1772667085
    nanosec: 610948072
  frame_id: map
pose:
  position:
    x: 0.06635402143001556
    y: -0.1179765984416008
    z: 0.09339014440774918
  orientation:
    x: -0.0014781489993284968
    y: 0.003823452366929749
    z: -0.8471413290910847
    w: -0.5313520205257544
---
header:
  stamp:
    sec: 1772667085
    nanosec: 644687797
  frame_id: map
pose:
  position:
    x: 0.06621153652667999
    y: -0.11802999675273895
    z: 0.09337515383958817
  orientation:
    x: -0.0014724217200606346
    y: 0.003830405526799221
    z: -0.8469502985002092
    w: -0.5316561732580332
---
header:
  stamp:
    sec: 1772667085
    nanosec: 675122987
  frame_id: map
pose:
  position:
    x: 0.06608007848262787
    y: -0.11808666586875916
    z: 0.09335820376873016
  orientation:
    x: -0.0014698021946440065
    y: 0.0038389473429761376
    z: -0.8468008457753896
    w: -0.5318943029521198
---
header:
  stamp:
    sec: 1772667085
    nanosec: 710348883
  frame_id: map
pose:
  position:
    x: 0.06592041254043579
    y: -0.11815553158521652
    z: 0.09334228932857513
  orientation:
    x: -0.0014711265276495598
    y: 0.0038374254466181897
    z: -0.846739585331079
    w: -0.5319917253924527
---
header:
  stamp:
    sec: 1772667085
    nanosec: 743412554
  frame_id: map
pose:
  position:
    x: 0.06582026928663254
    y: -0.11820659041404724
    z: 0.09332768619060516
  orientation:
    x: -0.0014678495278597744
    y: 0.0038451107433444113
